{"type":"FeatureCollection","features":[{"type":"Feature","geometry":{"type":"Point","coordinates":["13.3356272","-8.8383281"]},"properties":{"city":"Luanda","name":"Angola Internet Exchange"}},{"type":"Feature","geometry":{"type":"Point","coordinates":["25.918889","-24.555833"]},"properties":{"city":"Gaborone","name":"Botswana Internet Exchange"}},{"type":"Feature","geometry":{"type":"Point","coordinates":["31.2357116","30.0444196"]},"properties":{"city":"Cairo","name":"Middle East Internet Exchange"}},{"type":"Feature","geometry":{"type":"Point","coordinates":["-0.196306","5.5557169"]},"properties":{"city":"Accra","name":"Ghana Internet Exchange"}},{"type":"Feature","geometry":{"type":"Point","coordinates":["36.8219462","-1.2920659"]},"properties":{"city":"Nairobi","name":"Kenya Internet Exchange"}},{"type":"Feature","geometry":{"type":"Point","coordinates":["27.4916","-29.308319"]},"properties":{"city":"Maseru","name":"Lesotho Internet Exchange Point"}},{"type":"Feature","geometry":{"type":"Point","coordinates":["32.5833333","-25.9666667"]},"properties":{"city":"Maputo","name":"Mozambique Internet Exchange"}},{"type":"Feature","geometry":{"type":"Point","coordinates":["32.532241","15.550101"]},"properties":{"city":"Khartoum","name":"Sudanese Internet Exchange Point"}},{"type":"Feature","geometry":{"type":"Point","coordinates":["32.5484025","0.2287596"]},"properties":{"city":"Kampala","name":"Uganda Internet Exchange Point"}},{"type":"Feature","geometry":{"type":"Point","coordinates":["31.053961","-17.82922"]},"properties":{"city":"Harare","name":"Zimbabwe Internet Exchange"}},{"type":"Feature","geometry":{"type":"Point","coordinates":["104.917445","11.558831"]},"properties":{"city":"Phnom Penh","name":"Cambodia Internet Exchange"}},{"type":"Feature","geometry":{"type":"Point","coordinates":["116.407526","39.90403"]},"properties":{"city":"Beijing","name":"TerraMark"}},{"type":"Feature","geometry":{"type":"Point","coordinates":["114.109497","22.396428"]},"properties":{"city":"Hong Kong","name":"Hong Kong Internet Exchange"}},{"type":"Feature","geometry":{"type":"Point","coordinates":["114.109497","22.396428"]},"properties":{"city":"Hong Kong","name":"Equinix"}},{"type":"Feature","geometry":{"type":"Point","coordinates":["106.845172","-6.211544"]},"properties":{"city":"Jakarta","name":"Access Internet eXchange"}},{"type":"Feature","geometry":{"type":"Point","coordinates":["106.845172","-6.211544"]},"properties":{"city":"Jakarta","name":"National Inter Connection Exchange"}},{"type":"Feature","geometry":{"type":"Point","coordinates":["106.845172","-6.211544"]},"properties":{"city":"Jakarta","name":"Indonesia Internet Exchange"}},{"type":"Feature","geometry":{"type":"Point","coordinates":["106.845172","-6.211544"]},"properties":{"city":"Jakarta","name":"Napsindo International Internet Exchange"}},{"type":"Feature","geometry":{"type":"Point","coordinates":["77.2206","28.64197"]},"properties":{"city":"New Delhi","name":"National Internet Exchange of India"}},{"type":"Feature","geometry":{"type":"Point","coordinates":["35.21371","31.768319"]},"properties":{"city":"Jerusalem","name":"Israeli Internet eXchange"}},{"type":"Feature","geometry":{"type":"Point","coordinates":["139.6917064","35.6894875"]},"properties":{"city":"Tokyo","name":"Japan Network Access Point"}},{"type":"Feature","geometry":{"type":"Point","coordinates":["139.6917064","35.6894875"]},"properties":{"city":"Tokyo","name":"Japan Network Access Point|JPNAP6"}},{"type":"Feature","geometry":{"type":"Point","coordinates":["139.6917064","35.6894875"]},"properties":{"city":"Tokyo","name":"Japan Internet Exchange"}},{"type":"Feature","geometry":{"type":"Point","coordinates":["139.6917064","35.6894875"]},"properties":{"city":"Tokyo","name":"DIX-IE"}},{"type":"Feature","geometry":{"type":"Point","coordinates":["139.6917064","35.6894875"]},"properties":{"city":"Tokyo","name":"NSPIXP-6"}},{"type":"Feature","geometry":{"type":"Point","coordinates":["101.7110995","3.1525238"]},"properties":{"city":"Kuala Lumpur","name":"Asia Internet Exchange Network Access Point Malaysia"}},{"type":"Feature","geometry":{"type":"Point","coordinates":["101.7110995","3.1525238"]},"properties":{"city":"Kuala Lumpur","name":"Malaysia Internet Exchange"}},{"type":"Feature","geometry":{"type":"Point","coordinates":["120.988525","14.565137"]},"properties":{"city":"Manila","name":"Philippine Open Internet Exchange (PhOPENIX)"}},{"type":"Feature","geometry":{"type":"Point","coordinates":["120.988525","14.565137"]},"properties":{"city":"Manila","name":"Philippine Internet Exchange"}},{"type":"Feature","geometry":{"type":"Point","coordinates":["120.988525","14.565137"]},"properties":{"city":"Manila","name":"Philippine Common Routing Exchange"}},{"type":"Feature","geometry":{"type":"Point","coordinates":["103.8509491","1.2800945"]},"properties":{"city":"Singapur","name":"Singapore Open eXchange"}},{"type":"Feature","geometry":{"type":"Point","coordinates":["103.8509491","1.2800945"]},"properties":{"city":"Singapur","name":"Singapore Internet Exchange"}},{"type":"Feature","geometry":{"type":"Point","coordinates":["103.8509491","1.2800945"]},"properties":{"city":"Singapur","name":"SingTel Internet Exchange"}},{"type":"Feature","geometry":{"type":"Point","coordinates":["79.8778522","6.9059931"]},"properties":{"city":"Colombo","name":"Sri Lanka Internet Exchange"}},{"type":"Feature","geometry":{"type":"Point","coordinates":["121.5486178","25.1022189"]},"properties":{"city":"Taipei","name":"Taiwan Network Access Point"}},{"type":"Feature","geometry":{"type":"Point","coordinates":["121.5486178","25.1022189"]},"properties":{"city":"Taipei","name":"TWIX"}},{"type":"Feature","geometry":{"type":"Point","coordinates":["100.4762319","13.7234186"]},"properties":{"city":"Bangkok","name":"CAT Telecom National Internet Exchange"}},{"type":"Feature","geometry":{"type":"Point","coordinates":["100.4762319","13.7234186"]},"properties":{"city":"Bangkok","name":"TOT National Internet Exchange"}},{"type":"Feature","geometry":{"type":"Point","coordinates":["100.4762319","13.7234186"]},"properties":{"city":"Bangkok","name":"True Internet Gateway National Internet Exchange"}},{"type":"Feature","geometry":{"type":"Point","coordinates":["100.4762319","13.7234186"]},"properties":{"city":"Bangkok","name":"Advance Datanetwork Communication National Internet Exchange"}},{"type":"Feature","geometry":{"type":"Point","coordinates":["100.4762319","13.7234186"]},"properties":{"city":"Bangkok","name":"CS Loxinfo National Internet Exchange"}},{"type":"Feature","geometry":{"type":"Point","coordinates":["100.4762319","13.7234186"]},"properties":{"city":"Bangkok","name":"TT&T Global Network National Internet Exchange"}},{"type":"Feature","geometry":{"type":"Point","coordinates":["100.4762319","13.7234186"]},"properties":{"city":"Bangkok","name":"Jastel Network Internet Exchange"}},{"type":"Feature","geometry":{"type":"Point","coordinates":["100.4762319","13.7234186"]},"properties":{"city":"Bangkok","name":"NECTEC IIR Public Internet Exchange"}},{"type":"Feature","geometry":{"type":"Point","coordinates":["105.85","21.0333333"]},"properties":{"city":"Hanoi","name":"FPT Group"}},{"type":"Feature","geometry":{"type":"Point","coordinates":["105.85","21.0333333"]},"properties":{"city":"Hanoi","name":"HANOITELECOM"}},{"type":"Feature","geometry":{"type":"Point","coordinates":["105.85","21.0333333"]},"properties":{"city":"Hanoi","name":"SAIGONPOSTEL"}},{"type":"Feature","geometry":{"type":"Point","coordinates":["105.85","21.0333333"]},"properties":{"city":"Hanoi","name":"VietNam Internet eXchange"}},{"type":"Feature","geometry":{"type":"Point","coordinates":["105.85","21.0333333"]},"properties":{"city":"Hanoi","name":"VNPT"}},{"type":"Feature","geometry":{"type":"Point","coordinates":["105.85","21.0333333"]},"properties":{"city":"Hanoi","name":"VP TELECOM"}},{"type":"Feature","geometry":{"type":"Point","coordinates":["105.85","21.0333333"]},"properties":{"city":"Hanoi","name":"VIETTEL"}},{"type":"Feature","geometry":{"type":"Point","coordinates":["69.2166667","41.2666667"]},"properties":{"city":"Tashkent","name":"Tashkent Internet Exchange"}},{"type":"Feature","geometry":{"type":"Point","coordinates":["44.516667","40.183333"]},"properties":{"city":"Yerevan","name":"Yerevan"}},{"type":"Feature","geometry":{"type":"Point","coordinates":["23.3216697","42.6978388"]},"properties":{"city":"Sofia","name":"Bulgarian Internet eXchange"}},{"type":"Feature","geometry":{"type":"Point","coordinates":["23.3216697","42.6978388"]},"properties":{"city":"Sofia","name":"Varna Internet Exchange"}},{"type":"Feature","geometry":{"type":"Point","coordinates":["15.9778949","45.8130293"]},"properties":{"city":"Zagreb","name":"Croatian Internet Exchange"}},{"type":"Feature","geometry":{"type":"Point","coordinates":["33.3666667","35.1666667"]},"properties":{"city":"Nicosia","name":"Cyprus Internet Exchange"}},{"type":"Feature","geometry":{"type":"Point","coordinates":["12.4825199","41.8929163"]},"properties":{"city":"Rome","name":"Nautilus Mediterranean Exchange Point"}},{"type":"Feature","geometry":{"type":"Point","coordinates":["26.1038889","44.4325"]},"properties":{"city":"Bucharest","name":"Balcan-IX"}},{"type":"Feature","geometry":{"type":"Point","coordinates":["37.6173","55.755826"]},"properties":{"city":"Moscow","name":"Home-IX"}},{"type":"Feature","geometry":{"type":"Point","coordinates":["37.6173","55.755826"]},"properties":{"city":"Moscow","name":"IXNN"}},{"type":"Feature","geometry":{"type":"Point","coordinates":["37.6173","55.755826"]},"properties":{"city":"Moscow","name":"KRS-IX"}},{"type":"Feature","geometry":{"type":"Point","coordinates":["37.6173","55.755826"]},"properties":{"city":"Moscow","name":"Moscow Internet Exchange"}},{"type":"Feature","geometry":{"type":"Point","coordinates":["37.6173","55.755826"]},"properties":{"city":"Moscow","name":"Saint Petersburg"}},{"type":"Feature","geometry":{"type":"Point","coordinates":["32.8553399","39.885354"]},"properties":{"city":"Ankara","name":"Turkish Information Exchange"}},{"type":"Feature","geometry":{"type":"Point","coordinates":["35.21371","31.768319"]},"properties":{"city":"Jerusalem","name":"Israeli Internet Exchange"}},{"type":"Feature","geometry":{"type":"Point","coordinates":["31.2357116","30.0444196"]},"properties":{"city":"Cairo","name":"Middle East Internet Exchange"}},{"type":"Feature","geometry":{"type":"Point","coordinates":["54.3666667","24.4666667"]},"properties":{"city":"Abu Dhabi","name":"UAE Internet Exchange (UAE-IX)"}},{"type":"Feature","geometry":{"type":"Point","coordinates":["54.3666667","24.4666667"]},"properties":{"city":"Abu Dhabi","name":"Etisalat Smarthub IPX"}},{"type":"Feature","geometry":{"type":"Point","coordinates":["174.7762442","-41.2864257"]},"properties":{"city":"Wellington","name":"ExchangeNET"}},{"type":"Feature","geometry":{"type":"Point","coordinates":["-75.6180443","45.3844939"]},"properties":{"city":"Ottawa","name":"BC Internet Exchange"}},{"type":"Feature","geometry":{"type":"Point","coordinates":["-75.6180443","45.3844939"]},"properties":{"city":"Ottawa","name":"Greater Toronto International Internet Exchange"}},{"type":"Feature","geometry":{"type":"Point","coordinates":["-75.6180443","45.3844939"]},"properties":{"city":"Ottawa","name":"Niagara Region International Internet Exchange"}},{"type":"Feature","geometry":{"type":"Point","coordinates":["-91.6916417","41.3014077"]},"properties":{"city":"Washington","name":"Telx Internet Exchange"}},{"type":"Feature","geometry":{"type":"Point","coordinates":["-91.6916417","41.3014077"]},"properties":{"city":"Washington","name":"MAE-Central"}},{"type":"Feature","geometry":{"type":"Point","coordinates":["-91.6916417","41.3014077"]},"properties":{"city":"Washington","name":"MAE-East"}},{"type":"Feature","geometry":{"type":"Point","coordinates":["-91.6916417","41.3014077"]},"properties":{"city":"Washington","name":"MAE-West"}},{"type":"Feature","geometry":{"type":"Point","coordinates":["-85.888666","30.2298881"]},"properties":{"city":"Panama City","name":"InteRed"}},{"type":"Feature","geometry":{"type":"Point","coordinates":["-63.045831","18.030202"]},"properties":{"city":"Philipsburg","name":"OCIX"}},{"type":"Feature","geometry":{"type":"Point","coordinates":["-64.675912","32.382839"]},"properties":{"city":"St. George's","name":"Grenada Internet Exchange (GREX)"}},{"type":"Feature","geometry":{"type":"Point","coordinates":["-61.392005","15.337182"]},"properties":{"city":"Roseau","name":"Dominica National Internet Exchange Point (DANIX)"}},{"type":"Feature","geometry":{"type":"Point","coordinates":["-59.8410697","-37.2017285"]},"properties":{"city":"Buenos Aires","name":"CABASE"}},{"type":"Feature","geometry":{"type":"Point","coordinates":["-70.6573694","-33.4577558"]},"properties":{"city":"Santiago","name":"NAP.cl"}},{"type":"Feature","geometry":{"type":"Point","coordinates":["-74.07603","4.5981"]},"properties":{"city":"Bogota","name":"NAP Colombia"}},{"type":"Feature","geometry":{"type":"Point","coordinates":["-78.4453194","-0.1483275"]},"properties":{"city":"Quito","name":"NAP Ecuador"}},{"type":"Feature","geometry":{"type":"Point","coordinates":["-77.0622028","-12.0478158"]},"properties":{"city":"Lima","name":"NAP.pe"}},{"type":"Feature","geometry":{"type":"Point","coordinates":["3.417977","6.441158"]},"properties":{"city":"Lagos","name":"Internet Exchange Point of Nigeria"}},{"type":"Feature","geometry":{"type":"Point","coordinates":["3.9750883","7.3584174"]},"properties":{"city":"Ibadan","name":"Ibadan Internet Exchange"}},{"type":"Feature","geometry":{"type":"Point","coordinates":["29.873888","-1.940278"]},"properties":{"city":"Rwanda","name":"Rwanda Internet Exchange"}},{"type":"Feature","geometry":{"type":"Point","coordinates":["18.4240553","-33.9248685"]},"properties":{"city":"Cape Town","name":"Cape Town Internet Exchange"}},{"type":"Feature","geometry":{"type":"Point","coordinates":["28.0473051","-26.2041028"]},"properties":{"city":"Johannesburg","name":"Johannesburg Internet Exchange"}},{"type":"Feature","geometry":{"type":"Point","coordinates":["28.1879634","-25.8544025"]},"properties":{"city":"Centurion","name":"The Neutral Internet Exchange"}},{"type":"Feature","geometry":{"type":"Point","coordinates":["39.269661","-6.822921"]},"properties":{"city":"Dar es Salaam","name":"Tanzania Internet eXchange"}},{"type":"Feature","geometry":{"type":"Point","coordinates":["36.67445","-3.365789"]},"properties":{"city":"Arusha","name":"Arusha Internet Exchange Point"}},{"type":"Feature","geometry":{"type":"Point","coordinates":["28.3461948","-15.4480423"]},"properties":{"city":"Lusaka","name":"Lusaka IXP"}},{"type":"Feature","geometry":{"type":"Point","coordinates":["90.407143","23.709921"]},"properties":{"city":"Dhaka","name":"Bangladesh Internet Exchange"}},{"type":"Feature","geometry":{"type":"Point","coordinates":["121.473704","31.230393"]},"properties":{"city":"Shanghai","name":"Shanghai City Exchange"}},{"type":"Feature","geometry":{"type":"Point","coordinates":["121.473704","31.230393"]},"properties":{"city":"Shanghai","name":"Shanghai Internet Exchange Center"}},{"type":"Feature","geometry":{"type":"Point","coordinates":["106.845172","-6.211544"]},"properties":{"city":"Jakarta","name":"Matrix Cable Internet Exchange"}},{"type":"Feature","geometry":{"type":"Point","coordinates":["106.845172","-6.211544"]},"properties":{"city":"Jakarta","name":"Biznet Internet Exchange"}},{"type":"Feature","geometry":{"type":"Point","coordinates":["135.5119682","34.6533451"]},"properties":{"city":"Osaka","name":"Japan Network Access Point|JPNAP"}},{"type":"Feature","geometry":{"type":"Point","coordinates":["76.912628","43.255058"]},"properties":{"city":"Almaty","name":"Kazakhstan Internet Exchange"}},{"type":"Feature","geometry":{"type":"Point","coordinates":["101.7110995","3.1525238"]},"properties":{"city":"Kuala Lumpur","name":"Kuala Lumpur Internet Exchange"}},{"type":"Feature","geometry":{"type":"Point","coordinates":["106.90554","47.921378"]},"properties":{"city":"Ulaanbaatar","name":"OpenMIX"}},{"type":"Feature","geometry":{"type":"Point","coordinates":["85.2727929","27.6820254"]},"properties":{"city":"Kathmandu","name":"Nepal Internet Exchange"}},{"type":"Feature","geometry":{"type":"Point","coordinates":["14.30899","46.62794"]},"properties":{"city":"Klagenfurt","name":"Alpes Adria Internet Exchange"}},{"type":"Feature","geometry":{"type":"Point","coordinates":["16.3738189","48.2081743"]},"properties":{"city":"Vienna","name":"Vienna Internet Exchange"}},{"type":"Feature","geometry":{"type":"Point","coordinates":["9.9797373","47.2497427"]},"properties":{"city":"Vorarlberg","name":"Rheintal Internet Exchange"}},{"type":"Feature","geometry":{"type":"Point","coordinates":["4.35","50.85"]},"properties":{"city":"Brussels","name":"Belgian National Internet eXchange"}},{"type":"Feature","geometry":{"type":"Point","coordinates":["4.35","50.85"]},"properties":{"city":"Brussels","name":"Free Belgian Internet Exchange"}},{"type":"Feature","geometry":{"type":"Point","coordinates":["14.4378005","50.0755381"]},"properties":{"city":"Prague","name":"Neutral Internet Exchange of the Czech Republic"}},{"type":"Feature","geometry":{"type":"Point","coordinates":["16.6068371","49.1950602"]},"properties":{"city":"Brno","name":"Commercial Brno Internet Exchange"}},{"type":"Feature","geometry":{"type":"Point","coordinates":["12.4767788","55.8051662"]},"properties":{"city":"Kongens Lyngby","name":"Danish Internet Exchange Point"}},{"type":"Feature","geometry":{"type":"Point","coordinates":["24.7716452","59.4387419"]},"properties":{"city":"Tallinn","name":"Tallinn Internet Exchange"}},{"type":"Feature","geometry":{"type":"Point","coordinates":["24.7716452","59.4387419"]},"properties":{"city":"Tallinn","name":"Tallinn Internet Exchange (2)"}},{"type":"Feature","geometry":{"type":"Point","coordinates":["24.9410248","60.1733244"]},"properties":{"city":"Helsinki","name":"Finnish Communication and Internet Exchange"}},{"type":"Feature","geometry":{"type":"Point","coordinates":["23.7610254","61.4981508"]},"properties":{"city":"Tampere","name":"Tampere Region Exchange"}},{"type":"Feature","geometry":{"type":"Point","coordinates":["2.3522219","48.856614"]},"properties":{"city":"Paris","name":"France-IX"}},{"type":"Feature","geometry":{"type":"Point","coordinates":["2.3522219","48.856614"]},"properties":{"city":"Paris","name":"French National Internet Exchange IPv6"}},{"type":"Feature","geometry":{"type":"Point","coordinates":["2.3522219","48.856614"]},"properties":{"city":"Paris","name":"Metropolitan Area Ethernet"}},{"type":"Feature","geometry":{"type":"Point","coordinates":["2.3522219","48.856614"]},"properties":{"city":"Paris","name":"Mix Internet Exchange and Transit"}},{"type":"Feature","geometry":{"type":"Point","coordinates":["2.3522219","48.856614"]},"properties":{"city":"Paris","name":"Paris Internet Exchange"}},{"type":"Feature","geometry":{"type":"Point","coordinates":["2.3522219","48.856614"]},"properties":{"city":"Paris","name":"Paris Operators for Universal Internet Exchange"}},{"type":"Feature","geometry":{"type":"Point","coordinates":["2.3522219","48.856614"]},"properties":{"city":"Paris","name":"Service for French Internet Exchange"}},{"type":"Feature","geometry":{"type":"Point","coordinates":["2.3522219","48.856614"]},"properties":{"city":"Paris","name":"Free Internet Exchange"}},{"type":"Feature","geometry":{"type":"Point","coordinates":["2.3522219","48.856614"]},"properties":{"city":"Paris","name":"Paris NAP"}},{"type":"Feature","geometry":{"type":"Point","coordinates":["7.4416241","48.3181795"]},"properties":{"city":"Alsace","name":"EuroGIX"}},{"type":"Feature","geometry":{"type":"Point","coordinates":["5.7325434","45.1690841"]},"properties":{"city":"Grenoble","name":"Grenoble Network Initiative"}},{"type":"Feature","geometry":{"type":"Point","coordinates":["4.8335373","45.7671686"]},"properties":{"city":"Lyon","name":"Lyon Internet Exchange"}},{"type":"Feature","geometry":{"type":"Point","coordinates":["5.215","43.436667"]},"properties":{"city":"Marseille","name":"Marseille Internet eXchange"}},{"type":"Feature","geometry":{"type":"Point","coordinates":["6.018357","44.681478"]},"properties":{"city":"Saint-Étienne","name":"PhibIX"}},{"type":"Feature","geometry":{"type":"Point","coordinates":["11.56561","48.14642"]},"properties":{"city":"Munich","name":"Alps Internet Exchange"}},{"type":"Feature","geometry":{"type":"Point","coordinates":["0","0"]},"properties":{"city":"BCIX","name":"Berlin Commercial Internet Exchange"}},{"type":"Feature","geometry":{"type":"Point","coordinates":["10.0075915","48.3646359"]},"properties":{"city":"DE-CIX","name":"German Internet Exchange"}},{"type":"Feature","geometry":{"type":"Point","coordinates":["0","0"]},"properties":{"city":"DataIX","name":"International Internet Exchange"}},{"type":"Feature","geometry":{"type":"Point","coordinates":["10.0075915","48.3646359"]},"properties":{"city":"ECIX","name":"European Commercial Internet Exchange"}},{"type":"Feature","geometry":{"type":"Point","coordinates":["8.6996846","50.1100866"]},"properties":{"city":"Frankfurt","name":"Frankfurt Internet Exchange"}},{"type":"Feature","geometry":{"type":"Point","coordinates":["8.6996846","50.1100866"]},"properties":{"city":"Frankfurt","name":"Frankfurt Network Access Point"}},{"type":"Feature","geometry":{"type":"Point","coordinates":["9.9936818","53.5510846"]},"properties":{"city":"Hamburg","name":"INXS Hamburg"}},{"type":"Feature","geometry":{"type":"Point","coordinates":["9.9936818","53.5510846"]},"properties":{"city":"Hamburg","name":"WorkIX Hamburg"}},{"type":"Feature","geometry":{"type":"Point","coordinates":["11.56561","48.14642"]},"properties":{"city":"Munich","name":"INXS Munich"}},{"type":"Feature","geometry":{"type":"Point","coordinates":["8.6996846","50.1100866"]},"properties":{"city":"Frankfurt","name":"Kleyer Rebstöcker InternetExchange"}},{"type":"Feature","geometry":{"type":"Point","coordinates":["8.6996846","50.1100866"]},"properties":{"city":"Frankfurt","name":"MAE Frankfurt"}},{"type":"Feature","geometry":{"type":"Point","coordinates":["11.56561","48.14642"]},"properties":{"city":"Munich","name":"Munich Commercial Internet Exchange"}},{"type":"Feature","geometry":{"type":"Point","coordinates":["11.080251","49.4476332"]},"properties":{"city":"Nuremberg","name":"Nürnberger Internet Exchange"}},{"type":"Feature","geometry":{"type":"Point","coordinates":["23.7293097","37.9837155"]},"properties":{"city":"Athens","name":"Athens Internet Exchange"}},{"type":"Feature","geometry":{"type":"Point","coordinates":["23.7293097","37.9837155"]},"properties":{"city":"Athens","name":"Greek Internet Exchange"}},{"type":"Feature","geometry":{"type":"Point","coordinates":["19.040235","47.497912"]},"properties":{"city":"Budapest","name":"Budapest Internet Exchange"}},{"type":"Feature","geometry":{"type":"Point","coordinates":["-21.9509196","64.1526754"]},"properties":{"city":"Reykjavík","name":"Reykjavík Internet Exchange"}},{"type":"Feature","geometry":{"type":"Point","coordinates":["-6.2603097","53.3498053"]},"properties":{"city":"Dublin","name":"Internet Neutral Exchange"}},{"type":"Feature","geometry":{"type":"Point","coordinates":["13.2345794","46.0710668"]},"properties":{"city":"Udine","name":"Friuli Venezia Giulia Internet Exchange"}},{"type":"Feature","geometry":{"type":"Point","coordinates":["9.186516","45.4654542"]},"properties":{"city":"Milan","name":"Milan Internet Exchange"}},{"type":"Feature","geometry":{"type":"Point","coordinates":["7.685676","45.070982"]},"properties":{"city":"Turin","name":"Torino Piemonte Exchange Point"}},{"type":"Feature","geometry":{"type":"Point","coordinates":["11.2480006","43.7710332"]},"properties":{"city":"Florence","name":"Tuscany Internet Exchange"}},{"type":"Feature","geometry":{"type":"Point","coordinates":["21.164539","42.672421"]},"properties":{"city":"Pristina","name":"Kosovo Internet Exchange"}},{"type":"Feature","geometry":{"type":"Point","coordinates":["24.1163132","56.9508098"]},"properties":{"city":"Riga","name":"Latvian Internet Exchange"}},{"type":"Feature","geometry":{"type":"Point","coordinates":["24.1163132","56.9508098"]},"properties":{"city":"Riga","name":"Santa Monica Internet Local Exchange"}},{"type":"Feature","geometry":{"type":"Point","coordinates":["9.555373","47.166"]},"properties":{"city":"Liechtenstein","name":"Rheintal Internet Exchange"}},{"type":"Feature","geometry":{"type":"Point","coordinates":["25.2796514","54.6871555"]},"properties":{"city":"Vilnius","name":"Lithuanian Internet Exchange"}},{"type":"Feature","geometry":{"type":"Point","coordinates":["6.1319346","49.611621"]},"properties":{"city":"Luxembourg","name":"Luxembourg Internet Exchange"}},{"type":"Feature","geometry":{"type":"Point","coordinates":["6.1319346","49.611621"]},"properties":{"city":"Luxembourg","name":"Luxembourg Commercial Internet Exchange"}},{"type":"Feature","geometry":{"type":"Point","coordinates":["14.4894444","35.8977778"]},"properties":{"city":"Msida","name":"Malta Internet Exchange"}},{"type":"Feature","geometry":{"type":"Point","coordinates":["28.841551","47.026859"]},"properties":{"city":"Chişinău","name":"Moldavian Internet Exchange"}},{"type":"Feature","geometry":{"type":"Point","coordinates":["4.8951679","52.3702157"]},"properties":{"city":"Amsterdam","name":"Amsterdam Internet Exchange"}},{"type":"Feature","geometry":{"type":"Point","coordinates":["4.8951679","52.3702157"]},"properties":{"city":"Amsterdam","name":"Netherlands Internet Exchange"}},{"type":"Feature","geometry":{"type":"Point","coordinates":["6.890257","52.222363"]},"properties":{"city":"Enschede","name":"Nederlands-Duitse Internet Exchange"}},{"type":"Feature","geometry":{"type":"Point","coordinates":["6.5665018","53.2193835"]},"properties":{"city":"Groningen","name":"Groningen Internet Exchange"}},{"type":"Feature","geometry":{"type":"Point","coordinates":["5.7516999","53.223301"]},"properties":{"city":"Leeuwarden","name":"Friese Internet Exchange"}},{"type":"Feature","geometry":{"type":"Point","coordinates":["4.8951679","52.3702157"]},"properties":{"city":"Amsterdam","name":"XchangePoint Amsterdam IPP"}},{"type":"Feature","geometry":{"type":"Point","coordinates":["4.2806321","52.0899071"]},"properties":{"city":"The Hague","name":"Den Haag Internet Exchange"}},{"type":"Feature","geometry":{"type":"Point","coordinates":["4.4791885","51.9226584"]},"properties":{"city":"Rotterdam","name":"Rotterdam Internet eXchange"}},{"type":"Feature","geometry":{"type":"Point","coordinates":["10.7522454","59.9138688"]},"properties":{"city":"Oslo","name":"Norwegian Internet Exchange"}},{"type":"Feature","geometry":{"type":"Point","coordinates":["10.7522454","59.9138688"]},"properties":{"city":"Oslo","name":"Free Internet eXchange Oslo"}},{"type":"Feature","geometry":{"type":"Point","coordinates":["21.0122287","52.2296756"]},"properties":{"city":"Warsaw","name":"Polish Internet Exchange"}},{"type":"Feature","geometry":{"type":"Point","coordinates":["21.0122287","52.2296756"]},"properties":{"city":"Warsaw","name":"Warsaw Internet Exchange"}},{"type":"Feature","geometry":{"type":"Point","coordinates":["-9.1500364","38.7252993"]},"properties":{"city":"Lisbon","name":"GIGAbit Portuguese Internet Exchange"}},{"type":"Feature","geometry":{"type":"Point","coordinates":["26.1038889","44.4325"]},"properties":{"city":"Bucharest","name":"Romanian Network for Internet Exchange"}},{"type":"Feature","geometry":{"type":"Point","coordinates":["26.1038889","44.4325"]},"properties":{"city":"Bucharest","name":"InterLAN Internet Exchange"}},{"type":"Feature","geometry":{"type":"Point","coordinates":["28.6383333","44.1733333"]},"properties":{"city":"Constanța","name":"Tomis Internet eXchange"}},{"type":"Feature","geometry":{"type":"Point","coordinates":["61.4266808","55.1745331"]},"properties":{"city":"Chelyabinsk","name":"Chelyabinsk Peering Point Ural"}},{"type":"Feature","geometry":{"type":"Point","coordinates":["30.3350986","59.9342802"]},"properties":{"city":"Saint Petersburg","name":"DataIX"}},{"type":"Feature","geometry":{"type":"Point","coordinates":["60.605458","56.82593"]},"properties":{"city":"Yekaterinburg","name":"EKT-IX"}},{"type":"Feature","geometry":{"type":"Point","coordinates":["30.3350986","59.9342802"]},"properties":{"city":"Saint Petersburg","name":"PIRIX"}},{"type":"Feature","geometry":{"type":"Point","coordinates":["49.2777402","55.6091711"]},"properties":{"city":"Kazan","name":"KZN-IX"}},{"type":"Feature","geometry":{"type":"Point","coordinates":["82.9333333","55.0166667"]},"properties":{"city":"Novosibirsk","name":"NSK-IX"}},{"type":"Feature","geometry":{"type":"Point","coordinates":["39.7","47.2166667"]},"properties":{"city":"Rostov","name":"RND-IX"}},{"type":"Feature","geometry":{"type":"Point","coordinates":["50.1666667","53.2333333"]},"properties":{"city":"Samara","name":"Samara Internet Exchange"}},{"type":"Feature","geometry":{"type":"Point","coordinates":["30.3350986","59.9342802"]},"properties":{"city":"Saint Petersburg","name":"Saint Petersburg Internet Exchange"}},{"type":"Feature","geometry":{"type":"Point","coordinates":["37.6173","55.755826"]},"properties":{"city":"Moscow","name":"SVAO-IX"}},{"type":"Feature","geometry":{"type":"Point","coordinates":["132.1513889","43.3991667"]},"properties":{"city":"Vladivostok","name":"VLV-IX"}},{"type":"Feature","geometry":{"type":"Point","coordinates":["20.4622222","44.8205556"]},"properties":{"city":"Belgrade","name":"Serbian Open eXchange"}},{"type":"Feature","geometry":{"type":"Point","coordinates":["17.1071342","48.1458992"]},"properties":{"city":"Bratislava","name":"Slovak Internet Exchange"}},{"type":"Feature","geometry":{"type":"Point","coordinates":["14.5080702","46.0564509"]},"properties":{"city":"Ljubljana","name":"Slovenian Internet Exchange"}},{"type":"Feature","geometry":{"type":"Point","coordinates":["2.1734035","41.3850639"]},"properties":{"city":"Barcelona","name":"Catalunya Neutral Internet Exchange"}},{"type":"Feature","geometry":{"type":"Point","coordinates":["0","0"]},"properties":{"city":"Terremark","name":"Nap de las Americas"}},{"type":"Feature","geometry":{"type":"Point","coordinates":["-3.7037902","40.4167754"]},"properties":{"city":"Madrid","name":"España Internet Exchange"}},{"type":"Feature","geometry":{"type":"Point","coordinates":["-8.544697","42.870842"]},"properties":{"city":"Santiago de Compostela","name":"Galicia Neutral Internet Exchange"}},{"type":"Feature","geometry":{"type":"Point","coordinates":["-1.9806448","43.3182663"]},"properties":{"city":"San Sebastián","name":"Punto Neutro Vasco"}},{"type":"Feature","geometry":{"type":"Point","coordinates":["12.939819","57.721035"]},"properties":{"city":"Borås","name":"BOR-IX"}},{"type":"Feature","geometry":{"type":"Point","coordinates":["13.003822","55.604981"]},"properties":{"city":"Malmö","name":"IXOR"}},{"type":"Feature","geometry":{"type":"Point","coordinates":["18.06491","59.32893"]},"properties":{"city":"Stockholm","name":"Netnod Internet Exchange i Sverige"}},{"type":"Feature","geometry":{"type":"Point","coordinates":["11.97456","57.70887"]},"properties":{"city":"Göteborg","name":"GIX"}},{"type":"Feature","geometry":{"type":"Point","coordinates":["18.06491","59.32893"]},"properties":{"city":"Stockholm","name":"SOL-IX"}},{"type":"Feature","geometry":{"type":"Point","coordinates":["18.06491","59.32893"]},"properties":{"city":"Stockholm","name":"STHIX"}},{"type":"Feature","geometry":{"type":"Point","coordinates":["20.2630354","63.8258471"]},"properties":{"city":"Umeå","name":"NorrNod"}},{"type":"Feature","geometry":{"type":"Point","coordinates":["6.1422961","46.1983922"]},"properties":{"city":"Geneva","name":"CERN Internet Exchange Point"}},{"type":"Feature","geometry":{"type":"Point","coordinates":["8.5391825","47.3686498"]},"properties":{"city":"Zürich","name":"Swiss Internet Exchange"}},{"type":"Feature","geometry":{"type":"Point","coordinates":["8.5391825","47.3686498"]},"properties":{"city":"Zürich","name":"Telehouse Internet Exchange"}},{"type":"Feature","geometry":{"type":"Point","coordinates":["0","0"]},"properties":{"city":"Rhine Valley","name":"Rheintal Internet Exchange"}},{"type":"Feature","geometry":{"type":"Point","coordinates":["30.5234","50.4501"]},"properties":{"city":"Kiev","name":"Ukrainian Internet Exchange Network (UA-IX)"}},{"type":"Feature","geometry":{"type":"Point","coordinates":["30.5234","50.4501"]},"properties":{"city":"Kiev","name":"Digital Telecom Internet Exchange"}},{"type":"Feature","geometry":{"type":"Point","coordinates":["37.696233","48.002141"]},"properties":{"city":"Donetsk","name":"Donetsk Internet Exchange Point"}},{"type":"Feature","geometry":{"type":"Point","coordinates":["36.230383","49.9935"]},"properties":{"city":"Kharkiv","name":"Kharkiv Internet Exchange"}},{"type":"Feature","geometry":{"type":"Point","coordinates":["32.616867","46.635417"]},"properties":{"city":"Kherson","name":"Kherson Internet Exchange"}},{"type":"Feature","geometry":{"type":"Point","coordinates":["30.7326","46.484583"]},"properties":{"city":"Odessa","name":"Odessa Internet Exchange"}},{"type":"Feature","geometry":{"type":"Point","coordinates":["35.139567","47.8388"]},"properties":{"city":"Zaporizhia","name":"Zaporizhia Internet Exchange"}},{"type":"Feature","geometry":{"type":"Point","coordinates":["-1.548567","53.801279"]},"properties":{"city":"Leeds","name":"IXLeeds"}},{"type":"Feature","geometry":{"type":"Point","coordinates":["-2.2484851","53.479324"]},"properties":{"city":"Manchester","name":"IX Manchester"}},{"type":"Feature","geometry":{"type":"Point","coordinates":["-0.1230915","51.4894138"]},"properties":{"city":"London","name":"London Internet Exchange"}},{"type":"Feature","geometry":{"type":"Point","coordinates":["-0.1230915","51.4894138"]},"properties":{"city":"London","name":"London Internet Providers Exchange"}},{"type":"Feature","geometry":{"type":"Point","coordinates":["-0.1230915","51.4894138"]},"properties":{"city":"London","name":"London Network Access Point"}},{"type":"Feature","geometry":{"type":"Point","coordinates":["-2.2484851","53.479324"]},"properties":{"city":"Manchester","name":"Manchester Commercial Internet Exchange"}},{"type":"Feature","geometry":{"type":"Point","coordinates":["-2.2484851","53.479324"]},"properties":{"city":"Manchester","name":"Manchester Network Access Point"}},{"type":"Feature","geometry":{"type":"Point","coordinates":["-0.1230915","51.4894138"]},"properties":{"city":"London","name":"Meridian Gate Internet Exchange"}},{"type":"Feature","geometry":{"type":"Point","coordinates":["-0.1230915","51.4894138"]},"properties":{"city":"London","name":"Packet Exchange"}},{"type":"Feature","geometry":{"type":"Point","coordinates":["-0.1230915","51.4894138"]},"properties":{"city":"London","name":"Redbus Internet Exchange"}},{"type":"Feature","geometry":{"type":"Point","coordinates":["-0.1230915","51.4894138"]},"properties":{"city":"London","name":"xChangepoint"}},{"type":"Feature","geometry":{"type":"Point","coordinates":["35.4954794","33.8886289"]},"properties":{"city":"Beirut","name":"Beirut Internet Exchange"}},{"type":"Feature","geometry":{"type":"Point","coordinates":["31.2357116","30.0444196"]},"properties":{"city":"Cairo","name":"Cairo Internet Exchange"}},{"type":"Feature","geometry":{"type":"Point","coordinates":["31.2357116","30.0444196"]},"properties":{"city":"Cairo","name":"Cairo Regional Internet Exchange"}},{"type":"Feature","geometry":{"type":"Point","coordinates":["151.2068896","-33.873651"]},"properties":{"city":"Sydney","name":"Equinix"}},{"type":"Feature","geometry":{"type":"Point","coordinates":["152.9170055","-27.4989292"]},"properties":{"city":"Brisbane","name":"PIPE Networks"}},{"type":"Feature","geometry":{"type":"Point","coordinates":["144.9583094","-37.8211528"]},"properties":{"city":"Melbourne","name":"AUSIX"}},{"type":"Feature","geometry":{"type":"Point","coordinates":["152.9170055","-27.4989292"]},"properties":{"city":"Brisbane","name":"Brisbane Internet Exchange"}},{"type":"Feature","geometry":{"type":"Point","coordinates":["153.2834738","-28.8041813"]},"properties":{"city":"Lismore","name":"Lismore Internet Exchange"}},{"type":"Feature","geometry":{"type":"Point","coordinates":["144.9583094","-37.8211528"]},"properties":{"city":"Melbourne","name":"MEL BONE"}},{"type":"Feature","geometry":{"type":"Point","coordinates":["144.9583094","-37.8211528"]},"properties":{"city":"Melbourne","name":"Melbourne NAPette"}},{"type":"Feature","geometry":{"type":"Point","coordinates":["151.7844433","-32.9267275"]},"properties":{"city":"Newcastle","name":"Newcastle Internet Exchange"}},{"type":"Feature","geometry":{"type":"Point","coordinates":["138.6062277","-34.920603"]},"properties":{"city":"Adelaide","name":"South Australian Internet Exchange"}},{"type":"Feature","geometry":{"type":"Point","coordinates":["151.2068896","-33.873651"]},"properties":{"city":"Sydney","name":"Sydney Internet Exchange"}},{"type":"Feature","geometry":{"type":"Point","coordinates":["144.7851531","-37.4713077"]},"properties":{"city":"Victoria","name":"Victorian Internet Exchange"}},{"type":"Feature","geometry":{"type":"Point","coordinates":["115.8599254","-31.9510908"]},"properties":{"city":"Perth","name":"Western Australian Internet Exchange"}},{"type":"Feature","geometry":{"type":"Point","coordinates":["150.8779","-34.40624"]},"properties":{"city":"Wollongong","name":"Wollongong Internet Exchange"}},{"type":"Feature","geometry":{"type":"Point","coordinates":["-75.6180443","45.3844939"]},"properties":{"city":"Ottawa","name":"Ottawa Internet Exchange"}},{"type":"Feature","geometry":{"type":"Point","coordinates":["-71.242796","46.8032826"]},"properties":{"city":"Quebec","name":"Quebec Internet Exchange"}},{"type":"Feature","geometry":{"type":"Point","coordinates":["-79.376121","43.646667"]},"properties":{"city":"Toronto","name":"Toronto Internet Exchange"}},{"type":"Feature","geometry":{"type":"Point","coordinates":["-73.5539925","45.5086699"]},"properties":{"city":"Montreal","name":"Montreal Internet Exchange"}},{"type":"Feature","geometry":{"type":"Point","coordinates":["-97.153381","49.890967"]},"properties":{"city":"Winnipeg","name":"Winnipeg Internet Exchange"}},{"type":"Feature","geometry":{"type":"Point","coordinates":["-114.0581012","51.0453246"]},"properties":{"city":"Calgary","name":"Calgary Internet Exchange"}},{"type":"Feature","geometry":{"type":"Point","coordinates":["-87.6237123","41.8795848"]},"properties":{"city":"Chicago","name":"AADS (IXP)"}},{"type":"Feature","geometry":{"type":"Point","coordinates":["-118.3759053","34.0572825"]},"properties":{"city":"Los Angeles","name":"Any2"}},{"type":"Feature","geometry":{"type":"Point","coordinates":["-112.0730317","33.4535269"]},"properties":{"city":"Phoenix","name":"ArizonaIX"}},{"type":"Feature","geometry":{"type":"Point","coordinates":["-84.399097","33.760757"]},"properties":{"city":"Atlanta","name":""}},{"type":"Feature","geometry":{"type":"Point","coordinates":["-112.0730317","33.4535269"]},"properties":{"city":"Phoenix","name":"Phoenix"}},{"type":"Feature","geometry":{"type":"Point","coordinates":["-74.001306","40.729396"]},"properties":{"city":"New York City","name":"Big APE"}},{"type":"Feature","geometry":{"type":"Point","coordinates":["-90.7209746","41.4555873"]},"properties":{"city":"Buffalo","name":"BNIIX"}},{"type":"Feature","geometry":{"type":"Point","coordinates":["-71.0740024","42.3488895"]},"properties":{"city":"Boston","name":"Boston Internet Exchange"}},{"type":"Feature","geometry":{"type":"Point","coordinates":["-120.6533351","35.2850338"]},"properties":{"city":"San Luis Obispo","name":"C3IX"}},{"type":"Feature","geometry":{"type":"Point","coordinates":["-87.6237123","41.8795848"]},"properties":{"city":"Chicago","name":"ChIX"}},{"type":"Feature","geometry":{"type":"Point","coordinates":["-87.6237123","41.8795848"]},"properties":{"city":"Chicago","name":"GCIIX"}},{"type":"Feature","geometry":{"type":"Point","coordinates":["-155.5827818","19.8967662"]},"properties":{"city":"Hawaii","name":"Hawaii Internet eXchange"}},{"type":"Feature","geometry":{"type":"Point","coordinates":["-118.3759053","34.0572825"]},"properties":{"city":"Los Angeles","name":"LAIIX"}},{"type":"Feature","geometry":{"type":"Point","coordinates":["-93.2740227","44.958203"]},"properties":{"city":"Minneapolis","name":"Midwest Internet Cooperative Exchange"}},{"type":"Feature","geometry":{"type":"Point","coordinates":["-93.2740227","44.958203"]},"properties":{"city":"Minneapolis","name":"Northern Lights Local Exchange Point"}},{"type":"Feature","geometry":{"type":"Point","coordinates":["-80.275614","25.796549"]},"properties":{"city":"Miami","name":"NAP of the Americas|NAP of the Americas (NOTA)"}},{"type":"Feature","geometry":{"type":"Point","coordinates":["-77.9932308","38.4723897"]},"properties":{"city":"Culpeper","name":"Terremark"}},{"type":"Feature","geometry":{"type":"Point","coordinates":["-122.6836598","45.5091312"]},"properties":{"city":"Portland","name":"NWAX"}},{"type":"Feature","geometry":{"type":"Point","coordinates":["-74.0059731","40.7143528"]},"properties":{"city":"New York","name":"NYIIX"}},{"type":"Feature","geometry":{"type":"Point","coordinates":["-74.965169","40.087583"]},"properties":{"city":"Philadelphia","name":"PHLIX"}},{"type":"Feature","geometry":{"type":"Point","coordinates":["-122.4264417","37.7550372"]},"properties":{"city":"San Francisco","name":"SFMIX"}},{"type":"Feature","geometry":{"type":"Point","coordinates":["-122.3322085","47.6499703"]},"properties":{"city":"Seattle","name":"Seattle Internet Exchange"}},{"type":"Feature","geometry":{"type":"Point","coordinates":["-122.871976","42.3261137"]},"properties":{"city":"Medford","name":"SOAX"}},{"type":"Feature","geometry":{"type":"Point","coordinates":["0","0"]},"properties":{"city":"PAIX","name":"Switch and Data"}},{"type":"Feature","geometry":{"type":"Point","coordinates":["-84.399097","33.760757"]},"properties":{"city":"Atlanta (Georgia)","name":"Switch and Data's Peering And Internet eXchanges"}},{"type":"Feature","geometry":{"type":"Point","coordinates":["-96.7959535","32.7871328"]},"properties":{"city":"Dallas (Texas)","name":"Switch and Data's Peering And Internet eXchanges"}},{"type":"Feature","geometry":{"type":"Point","coordinates":["-80.275614","25.796549"]},"properties":{"city":"Miami (Florida)","name":"Switch and Data's Peering And Internet eXchanges"}},{"type":"Feature","geometry":{"type":"Point","coordinates":["-74.001306","40.729396"]},"properties":{"city":"New York City (New York)","name":"Switch and Data's Peering And Internet eXchanges"}},{"type":"Feature","geometry":{"type":"Point","coordinates":["-122.1583779","37.4414992"]},"properties":{"city":"Palo Alto (California)","name":"Switch and Data's Peering And Internet eXchanges"}},{"type":"Feature","geometry":{"type":"Point","coordinates":["-121.8914346","37.3356322"]},"properties":{"city":"San Jose (California)","name":"Switch and Data's Peering And Internet eXchanges"}},{"type":"Feature","geometry":{"type":"Point","coordinates":["-122.3322085","47.6499703"]},"properties":{"city":"Seattle (Washington)","name":"Switch and Data's Peering And Internet eXchanges"}},{"type":"Feature","geometry":{"type":"Point","coordinates":["-77.2668057","38.9001381"]},"properties":{"city":"Vienna (Virginia)","name":"Switch and Data's Peering And Internet eXchanges"}},{"type":"Feature","geometry":{"type":"Point","coordinates":["-66.1057217","18.4663338"]},"properties":{"city":"San Juan","name":"Puerto Rico Bridge Initiative (PRBI)"}},{"type":"Feature","geometry":{"type":"Point","coordinates":["-43.9577552","-19.862955"]},"properties":{"city":"Belo Horizonte","name":"PTT Metro"}},{"type":"Feature","geometry":{"type":"Point","coordinates":["-47.9291698","-15.7801482"]},"properties":{"city":"Brasília","name":"PTT Metro"}},{"type":"Feature","geometry":{"type":"Point","coordinates":["-49.2382569","-25.4399199"]},"properties":{"city":"Curitiba","name":"PTT Metro"}},{"type":"Feature","geometry":{"type":"Point","coordinates":["-48.4929681","-27.5938645"]},"properties":{"city":"Florianópolis","name":"PTT Metro"}},{"type":"Feature","geometry":{"type":"Point","coordinates":["-38.5428287","-3.779738"]},"properties":{"city":"Fortaleza","name":"PTT Metro"}},{"type":"Feature","geometry":{"type":"Point","coordinates":["-51.1734299","-23.2924626"]},"properties":{"city":"Londrina","name":"PTT Metro"}},{"type":"Feature","geometry":{"type":"Point","coordinates":["-51.1711224","-29.9943404"]},"properties":{"city":"Porto Alegre","name":"PTT Metro"}},{"type":"Feature","geometry":{"type":"Point","coordinates":["-43.2095869","-22.9035393"]},"properties":{"city":"Rio de Janeiro","name":"PTT Metro"}},{"type":"Feature","geometry":{"type":"Point","coordinates":["-38.508839","-12.9972129"]},"properties":{"city":"Salvador de Bahia","name":"PTT Metro"}},{"type":"Feature","geometry":{"type":"Point","coordinates":["-46.6499127","-23.6827077"]},"properties":{"city":"São Paulo","name":"PTT Metro"}},{"type":"Feature","geometry":{"type":"Point","coordinates":["-46.6499127","-23.6827077"]},"properties":{"city":"São Paulo","name":"NAP do Brasil"}},{"type":"Feature","geometry":{"type":"Point","coordinates":["-43.2095869","-22.9035393"]},"properties":{"city":"Rio de Janeiro","name":"PTT Moebius"}}]}
