[{"lat": "-8.8383281", "city": "Luanda", "lng": "13.3356272", "name": "Angola Internet Exchange", "country": "Angola"}, {"lat": "-24.555833", "city": "Gaborone", "lng": "25.918889", "name": "Botswana Internet Exchange", "country": "Botswana"}, {"lat": "30.0444196", "city": "Cairo", "lng": "31.2357116", "name": "Middle East Internet Exchange", "country": "Egypt"}, {"lat": "5.5557169", "city": "Accra", "lng": "-0.196306", "name": "Ghana Internet Exchange", "country": "Ghana"}, {"lat": "-1.2920659", "city": "Nairobi", "lng": "36.8219462", "name": "Kenya Internet Exchange", "country": "Kenya"}, {"lat": "-29.308319", "city": "Maseru", "lng": "27.4916", "name": "Lesotho Internet Exchange Point", "country": "Lesotho"}, {"lat": "-25.9666667", "city": "Maputo", "lng": "32.5833333", "name": "Mozambique Internet Exchange", "country": "Mozambique"}, {"lat": "15.550101", "city": "Khartoum", "lng": "32.532241", "name": "Sudanese Internet Exchange Point", "country": "Sudan"}, {"lat": "0.2287596", "city": "Kampala", "lng": "32.5484025", "name": "Uganda Internet Exchange Point", "country": "Uganda"}, {"lat": "-17.82922", "city": "Harare", "lng": "31.053961", "name": "Zimbabwe Internet Exchange", "country": "Zimbabwe"}, {"lat": "11.558831", "city": "Phnom Penh", "lng": "104.917445", "name": "Cambodia Internet Exchange", "country": "Cambodia"}, {"lat": "39.90403", "city": "Beijing", "lng": "116.407526", "name": "TerraMark", "country": "China"}, {"lat": "22.396428", "city": "Hong Kong", "lng": "114.109497", "name": "Hong Kong Internet Exchange", "country": "Hong Kong"}, {"lat": "22.396428", "city": "Hong Kong", "lng": "114.109497", "name": "Equinix", "country": "Hong Kong"}, {"lat": "-6.211544", "city": "Jakarta", "lng": "106.845172", "name": "Access Internet eXchange", "country": "Indonesia"}, {"lat": "-6.211544", "city": "Jakarta", "lng": "106.845172", "name": "National Inter Connection Exchange", "country": "Indonesia"}, {"lat": "-6.211544", "city": "Jakarta", "lng": "106.845172", "name": "Indonesia Internet Exchange", "country": "Indonesia"}, {"lat": "-6.211544", "city": "Jakarta", "lng": "106.845172", "name": "Napsindo International Internet Exchange", "country": "Indonesia"}, {"lat": "28.64197", "city": "New Delhi", "lng": "77.2206", "name": "National Internet Exchange of India", "country": "India"}, {"lat": "31.768319", "city": "Jerusalem", "lng": "35.21371", "name": "Israeli Internet eXchange", "country": "Israel"}, {"lat": "35.6894875", "city": "Tokyo", "lng": "139.6917064", "name": "Japan Network Access Point", "country": "Japan"}, {"lat": "35.6894875", "city": "Tokyo", "lng": "139.6917064", "name": "Japan Network Access Point|JPNAP6", "country": "Japan"}, {"lat": "35.6894875", "city": "Tokyo", "lng": "139.6917064", "name": "Japan Internet Exchange", "country": "Japan"}, {"lat": "35.6894875", "city": "Tokyo", "lng": "139.6917064", "name": "DIX-IE", "country": "Japan"}, {"lat": "35.6894875", "city": "Tokyo", "lng": "139.6917064", "name": "NSPIXP-6", "country": "Japan"}, {"lat": "3.1525238", "city": "Kuala Lumpur", "lng": "101.7110995", "name": "Asia Internet Exchange Network Access Point Malaysia", "country": "Malaysia"}, {"lat": "3.1525238", "city": "Kuala Lumpur", "lng": "101.7110995", "name": "Malaysia Internet Exchange", "country": "Malaysia"}, {"lat": "14.565137", "city": "Manila", "lng": "120.988525", "name": "Philippine Open Internet Exchange (PhOPENIX)", "country": "Philippines"}, {"lat": "14.565137", "city": "Manila", "lng": "120.988525", "name": "Philippine Internet Exchange", "country": "Philippines"}, {"lat": "14.565137", "city": "Manila", "lng": "120.988525", "name": "Philippine Common Routing Exchange", "country": "Philippines"}, {"lat": "1.2800945", "city": "Singapur", "lng": "103.8509491", "name": "Singapore Open eXchange", "country": "Singapore"}, {"lat": "1.2800945", "city": "Singapur", "lng": "103.8509491", "name": "Singapore Internet Exchange", "country": "Singapore"}, {"lat": "1.2800945", "city": "Singapur", "lng": "103.8509491", "name": "SingTel Internet Exchange", "country": "Singapore"}, {"lat": "6.9059931", "city": "Colombo", "lng": "79.8778522", "name": "Sri Lanka Internet Exchange", "country": "Sri Lanka"}, {"lat": "25.1022189", "city": "Taipei", "lng": "121.5486178", "name": "Taiwan Network Access Point", "country": "Taiwan"}, {"lat": "25.1022189", "city": "Taipei", "lng": "121.5486178", "name": "TWIX", "country": "Taiwan"}, {"lat": "13.7234186", "city": "Bangkok", "lng": "100.4762319", "name": "CAT Telecom National Internet Exchange", "country": "Thailand"}, {"lat": "13.7234186", "city": "Bangkok", "lng": "100.4762319", "name": "TOT National Internet Exchange", "country": "Thailand"}, {"lat": "13.7234186", "city": "Bangkok", "lng": "100.4762319", "name": "True Internet Gateway National Internet Exchange", "country": "Thailand"}, {"lat": "13.7234186", "city": "Bangkok", "lng": "100.4762319", "name": "Advance Datanetwork Communication National Internet Exchange", "country": "Thailand"}, {"lat": "13.7234186", "city": "Bangkok", "lng": "100.4762319", "name": "CS Loxinfo National Internet Exchange", "country": "Thailand"}, {"lat": "13.7234186", "city": "Bangkok", "lng": "100.4762319", "name": "TT&T Global Network National Internet Exchange", "country": "Thailand"}, {"lat": "13.7234186", "city": "Bangkok", "lng": "100.4762319", "name": "Jastel Network Internet Exchange", "country": "Thailand"}, {"lat": "13.7234186", "city": "Bangkok", "lng": "100.4762319", "name": "NECTEC IIR Public Internet Exchange", "country": "Thailand"}, {"lat": "21.0333333", "city": "Hanoi", "lng": "105.85", "name": "FPT Group", "country": "Vietnam"}, {"lat": "21.0333333", "city": "Hanoi", "lng": "105.85", "name": "HANOITELECOM", "country": "Vietnam"}, {"lat": "21.0333333", "city": "Hanoi", "lng": "105.85", "name": "SAIGONPOSTEL", "country": "Vietnam"}, {"lat": "21.0333333", "city": "Hanoi", "lng": "105.85", "name": "VietNam Internet eXchange", "country": "Vietnam"}, {"lat": "21.0333333", "city": "Hanoi", "lng": "105.85", "name": "VNPT", "country": "Vietnam"}, {"lat": "21.0333333", "city": "Hanoi", "lng": "105.85", "name": "VP TELECOM", "country": "Vietnam"}, {"lat": "21.0333333", "city": "Hanoi", "lng": "105.85", "name": "VIETTEL", "country": "Vietnam"}, {"lat": "41.2666667", "city": "Tashkent", "lng": "69.2166667", "name": "Tashkent Internet Exchange", "country": "Uzbekistan"}, {"lat": "40.183333", "city": "Yerevan", "lng": "44.516667", "name": "Yerevan", "country": "Armenia"}, {"lat": "42.6978388", "city": "Sofia", "lng": "23.3216697", "name": "Bulgarian Internet eXchange", "country": "Bulgaria"}, {"lat": "42.6978388", "city": "Sofia", "lng": "23.3216697", "name": "Varna Internet Exchange", "country": "Bulgaria"}, {"lat": "45.8130293", "city": "Zagreb", "lng": "15.9778949", "name": "Croatian Internet Exchange", "country": "Croatia"}, {"lat": "35.1666667", "city": "Nicosia", "lng": "33.3666667", "name": "Cyprus Internet Exchange", "country": "Cyprus"}, {"lat": "41.8929163", "city": "Rome", "lng": "12.4825199", "name": "Nautilus Mediterranean Exchange Point", "country": "Italy"}, {"lat": "44.4325", "city": "Bucharest", "lng": "26.1038889", "name": "Balcan-IX", "country": "Romania"}, {"lat": "55.755826", "city": "Moscow", "lng": "37.6173", "name": "Home-IX", "country": "Russia"}, {"lat": "55.755826", "city": "Moscow", "lng": "37.6173", "name": "IXNN", "country": "Russia"}, {"lat": "55.755826", "city": "Moscow", "lng": "37.6173", "name": "KRS-IX", "country": "Russia"}, {"lat": "55.755826", "city": "Moscow", "lng": "37.6173", "name": "Moscow Internet Exchange", "country": "Russia"}, {"lat": "55.755826", "city": "Moscow", "lng": "37.6173", "name": "Saint Petersburg", "country": "Russia"}, {"lat": "39.885354", "city": "Ankara", "lng": "32.8553399", "name": "Turkish Information Exchange", "country": "Turkey"}, {"lat": "31.768319", "city": "Jerusalem", "lng": "35.21371", "name": "Israeli Internet Exchange", "country": "Israel"}, {"lat": "30.0444196", "city": "Cairo", "lng": "31.2357116", "name": "Middle East Internet Exchange", "country": "Egypt"}, {"lat": "24.4666667", "city": "Abu Dhabi", "lng": "54.3666667", "name": "UAE Internet Exchange (UAE-IX)", "country": "United Arab Emirates"}, {"lat": "24.4666667", "city": "Abu Dhabi", "lng": "54.3666667", "name": "Etisalat Smarthub IPX", "country": "United Arab Emirates"}, {"lat": "-41.2864257", "city": "Wellington", "lng": "174.7762442", "name": "ExchangeNET", "country": "New Zealand"}, {"lat": "45.3844939", "city": "Ottawa", "lng": "-75.6180443", "name": "BC Internet Exchange", "country": "Canada"}, {"lat": "45.3844939", "city": "Ottawa", "lng": "-75.6180443", "name": "Greater Toronto International Internet Exchange", "country": "Canada"}, {"lat": "45.3844939", "city": "Ottawa", "lng": "-75.6180443", "name": "Niagara Region International Internet Exchange", "country": "Canada"}, {"lat": "41.3014077", "city": "Washington", "lng": "-91.6916417", "name": "Telx Internet Exchange", "country": "United States"}, {"lat": "41.3014077", "city": "Washington", "lng": "-91.6916417", "name": "MAE-Central", "country": "United States"}, {"lat": "41.3014077", "city": "Washington", "lng": "-91.6916417", "name": "MAE-East", "country": "United States"}, {"lat": "41.3014077", "city": "Washington", "lng": "-91.6916417", "name": "MAE-West", "country": "United States"}, {"lat": "30.2298881", "city": "Panama City", "lng": "-85.888666", "name": "InteRed", "country": "Panama"}, {"lat": "18.030202", "city": "Philipsburg", "lng": "-63.045831", "name": "OCIX", "country": "Sint Maarten"}, {"lat": "32.382839", "city": "St. George's", "lng": "-64.675912", "name": "Grenada Internet Exchange (GREX)", "country": "Grenada"}, {"lat": "15.337182", "city": "Roseau", "lng": "-61.392005", "name": "Dominica National Internet Exchange Point (DANIX)", "country": "Dominica"}, {"lat": "-37.2017285", "city": "Buenos Aires", "lng": "-59.8410697", "name": "CABASE", "country": "Argentina"}, {"lat": "-33.4577558", "city": "Santiago", "lng": "-70.6573694", "name": "NAP.cl", "country": "Chile"}, {"lat": "4.5981", "city": "Bogota", "lng": "-74.07603", "name": "NAP Colombia", "country": "Colombia"}, {"lat": "-0.1483275", "city": "Quito", "lng": "-78.4453194", "name": "NAP Ecuador", "country": "Ecuador"}, {"lat": "-12.0478158", "city": "Lima", "lng": "-77.0622028", "name": "NAP.pe", "country": "Peru"}, {"lat": "6.441158", "city": "Lagos", "lng": "3.417977", "name": "Internet Exchange Point of Nigeria", "country": "Nigeria"}, {"lat": "7.3584174", "city": "Ibadan", "lng": "3.9750883", "name": "Ibadan Internet Exchange", "country": "Nigeria"}, {"lat": "-1.940278", "city": "Rwanda", "lng": "29.873888", "name": "Rwanda Internet Exchange", "country": "Rwanda"}, {"lat": "-33.9248685", "city": "Cape Town", "lng": "18.4240553", "name": "Cape Town Internet Exchange", "country": "South Africa"}, {"lat": "-26.2041028", "city": "Johannesburg", "lng": "28.0473051", "name": "Johannesburg Internet Exchange", "country": "South Africa"}, {"lat": "-25.8544025", "city": "Centurion", "lng": "28.1879634", "name": "The Neutral Internet Exchange", "country": "South Africa"}, {"lat": "-6.822921", "city": "Dar es Salaam", "lng": "39.269661", "name": "Tanzania Internet eXchange", "country": "Tanzania"}, {"lat": "-3.365789", "city": "Arusha", "lng": "36.67445", "name": "Arusha Internet Exchange Point", "country": "Tanzania"}, {"lat": "-15.4480423", "city": "Lusaka", "lng": "28.3461948", "name": "Lusaka IXP", "country": "Zambia"}, {"lat": "23.709921", "city": "Dhaka", "lng": "90.407143", "name": "Bangladesh Internet Exchange", "country": "Bangladesh"}, {"lat": "31.230393", "city": "Shanghai", "lng": "121.473704", "name": "Shanghai City Exchange", "country": "China"}, {"lat": "31.230393", "city": "Shanghai", "lng": "121.473704", "name": "Shanghai Internet Exchange Center", "country": "China"}, {"lat": "-6.211544", "city": "Jakarta", "lng": "106.845172", "name": "Matrix Cable Internet Exchange", "country": "Indonesia"}, {"lat": "-6.211544", "city": "Jakarta", "lng": "106.845172", "name": "Biznet Internet Exchange", "country": "Indonesia"}, {"lat": "34.6533451", "city": "Osaka", "lng": "135.5119682", "name": "Japan Network Access Point|JPNAP", "country": "Japan"}, {"lat": "43.255058", "city": "Almaty", "lng": "76.912628", "name": "Kazakhstan Internet Exchange", "country": "Kazakhstan"}, {"lat": "3.1525238", "city": "Kuala Lumpur", "lng": "101.7110995", "name": "Kuala Lumpur Internet Exchange", "country": "Malaysia"}, {"lat": "47.921378", "city": "Ulaanbaatar", "lng": "106.90554", "name": "OpenMIX", "country": "Mongolia"}, {"lat": "27.6820254", "city": "Kathmandu", "lng": "85.2727929", "name": "Nepal Internet Exchange", "country": "Nepal"}, {"lat": "46.62794", "city": "Klagenfurt", "lng": "14.30899", "name": "Alpes Adria Internet Exchange", "country": "Austria"}, {"lat": "48.2081743", "city": "Vienna", "lng": "16.3738189", "name": "Vienna Internet Exchange", "country": "Austria"}, {"lat": "47.2497427", "city": "Vorarlberg", "lng": "9.9797373", "name": "Rheintal Internet Exchange", "country": "Austria"}, {"lat": "50.85", "city": "Brussels", "lng": "4.35", "name": "Belgian National Internet eXchange", "country": "Belgium"}, {"lat": "50.85", "city": "Brussels", "lng": "4.35", "name": "Free Belgian Internet Exchange", "country": "Belgium"}, {"lat": "50.0755381", "city": "Prague", "lng": "14.4378005", "name": "Neutral Internet Exchange of the Czech Republic", "country": "Czech Republic"}, {"lat": "49.1950602", "city": "Brno", "lng": "16.6068371", "name": "Commercial Brno Internet Exchange", "country": "Czech Republic"}, {"lat": "55.8051662", "city": "Kongens Lyngby", "lng": "12.4767788", "name": "Danish Internet Exchange Point", "country": "Denmark"}, {"lat": "59.4387419", "city": "Tallinn", "lng": "24.7716452", "name": "Tallinn Internet Exchange", "country": "Estonia"}, {"lat": "59.4387419", "city": "Tallinn", "lng": "24.7716452", "name": "Tallinn Internet Exchange (2)", "country": "Estonia"}, {"lat": "60.1733244", "city": "Helsinki", "lng": "24.9410248", "name": "Finnish Communication and Internet Exchange", "country": "Finland"}, {"lat": "61.4981508", "city": "Tampere", "lng": "23.7610254", "name": "Tampere Region Exchange", "country": "Finland"}, {"lat": "48.856614", "city": "Paris", "lng": "2.3522219", "name": "France-IX", "country": "France"}, {"lat": "48.856614", "city": "Paris", "lng": "2.3522219", "name": "French National Internet Exchange IPv6", "country": "France"}, {"lat": "48.856614", "city": "Paris", "lng": "2.3522219", "name": "Metropolitan Area Ethernet", "country": "France"}, {"lat": "48.856614", "city": "Paris", "lng": "2.3522219", "name": "Mix Internet Exchange and Transit", "country": "France"}, {"lat": "48.856614", "city": "Paris", "lng": "2.3522219", "name": "Paris Internet Exchange", "country": "France"}, {"lat": "48.856614", "city": "Paris", "lng": "2.3522219", "name": "Paris Operators for Universal Internet Exchange", "country": "France"}, {"lat": "48.856614", "city": "Paris", "lng": "2.3522219", "name": "Service for French Internet Exchange", "country": "France"}, {"lat": "48.856614", "city": "Paris", "lng": "2.3522219", "name": "Free Internet Exchange", "country": "France"}, {"lat": "48.856614", "city": "Paris", "lng": "2.3522219", "name": "Paris NAP", "country": "France"}, {"lat": "48.3181795", "city": "Alsace", "lng": "7.4416241", "name": "EuroGIX", "country": "France"}, {"lat": "45.1690841", "city": "Grenoble", "lng": "5.7325434", "name": "Grenoble Network Initiative", "country": "France"}, {"lat": "45.7671686", "city": "Lyon", "lng": "4.8335373", "name": "Lyon Internet Exchange", "country": "France"}, {"lat": "43.436667", "city": "Marseille", "lng": "5.215", "name": "Marseille Internet eXchange", "country": "France"}, {"lat": "44.681478", "city": "Saint-Étienne", "lng": "6.018357", "name": "PhibIX", "country": "France"}, {"lat": "48.14642", "city": "Munich", "lng": "11.56561", "name": "Alps Internet Exchange", "country": "Germany"}, {"lat": "0", "city": "BCIX", "lng": "0", "name": "Berlin Commercial Internet Exchange", "country": "Germany"}, {"lat": "48.3646359", "city": "DE-CIX", "lng": "10.0075915", "name": "German Internet Exchange", "country": "Germany"}, {"lat": "0", "city": "DataIX", "lng": "0", "name": "International Internet Exchange", "country": "Germany"}, {"lat": "48.3646359", "city": "ECIX", "lng": "10.0075915", "name": "European Commercial Internet Exchange", "country": "Germany"}, {"lat": "50.1100866", "city": "Frankfurt", "lng": "8.6996846", "name": "Frankfurt Internet Exchange", "country": "Germany"}, {"lat": "50.1100866", "city": "Frankfurt", "lng": "8.6996846", "name": "Frankfurt Network Access Point", "country": "Germany"}, {"lat": "53.5510846", "city": "Hamburg", "lng": "9.9936818", "name": "INXS Hamburg", "country": "Germany"}, {"lat": "53.5510846", "city": "Hamburg", "lng": "9.9936818", "name": "WorkIX Hamburg", "country": "Germany"}, {"lat": "48.14642", "city": "Munich", "lng": "11.56561", "name": "INXS Munich", "country": "Germany"}, {"lat": "50.1100866", "city": "Frankfurt", "lng": "8.6996846", "name": "Kleyer Rebstöcker InternetExchange", "country": "Germany"}, {"lat": "50.1100866", "city": "Frankfurt", "lng": "8.6996846", "name": "MAE Frankfurt", "country": "Germany"}, {"lat": "48.14642", "city": "Munich", "lng": "11.56561", "name": "Munich Commercial Internet Exchange", "country": "Germany"}, {"lat": "49.4476332", "city": "Nuremberg", "lng": "11.080251", "name": "Nürnberger Internet Exchange", "country": "Germany"}, {"lat": "37.9837155", "city": "Athens", "lng": "23.7293097", "name": "Athens Internet Exchange", "country": "Greece"}, {"lat": "37.9837155", "city": "Athens", "lng": "23.7293097", "name": "Greek Internet Exchange", "country": "Greece"}, {"lat": "47.497912", "city": "Budapest", "lng": "19.040235", "name": "Budapest Internet Exchange", "country": "Hungary"}, {"lat": "64.1526754", "city": "Reykjavík", "lng": "-21.9509196", "name": "Reykjavík Internet Exchange", "country": "Iceland"}, {"lat": "53.3498053", "city": "Dublin", "lng": "-6.2603097", "name": "Internet Neutral Exchange", "country": "Ireland"}, {"lat": "46.0710668", "city": "Udine", "lng": "13.2345794", "name": "Friuli Venezia Giulia Internet Exchange", "country": "Italy"}, {"lat": "45.4654542", "city": "Milan", "lng": "9.186516", "name": "Milan Internet Exchange", "country": "Italy"}, {"lat": "45.070982", "city": "Turin", "lng": "7.685676", "name": "Torino Piemonte Exchange Point", "country": "Italy"}, {"lat": "43.7710332", "city": "Florence", "lng": "11.2480006", "name": "Tuscany Internet Exchange", "country": "Italy"}, {"lat": "42.672421", "city": "Pristina", "lng": "21.164539", "name": "Kosovo Internet Exchange", "country": "Kosovo"}, {"lat": "56.9508098", "city": "Riga", "lng": "24.1163132", "name": "Latvian Internet Exchange", "country": "Latvia"}, {"lat": "56.9508098", "city": "Riga", "lng": "24.1163132", "name": "Santa Monica Internet Local Exchange", "country": "Latvia"}, {"lat": "47.166", "city": "Liechtenstein", "lng": "9.555373", "name": "Rheintal Internet Exchange", "country": "Liechtenstein"}, {"lat": "54.6871555", "city": "Vilnius", "lng": "25.2796514", "name": "Lithuanian Internet Exchange", "country": "Lithuania"}, {"lat": "49.611621", "city": "Luxembourg", "lng": "6.1319346", "name": "Luxembourg Internet Exchange", "country": "Luxembourg"}, {"lat": "49.611621", "city": "Luxembourg", "lng": "6.1319346", "name": "Luxembourg Commercial Internet Exchange", "country": "Luxembourg"}, {"lat": "35.8977778", "city": "Msida", "lng": "14.4894444", "name": "Malta Internet Exchange", "country": "Malta"}, {"lat": "47.026859", "city": "Chişinău", "lng": "28.841551", "name": "Moldavian Internet Exchange", "country": "Moldova"}, {"lat": "52.3702157", "city": "Amsterdam", "lng": "4.8951679", "name": "Amsterdam Internet Exchange", "country": "Netherlands"}, {"lat": "52.3702157", "city": "Amsterdam", "lng": "4.8951679", "name": "Netherlands Internet Exchange", "country": "Netherlands"}, {"lat": "52.222363", "city": "Enschede", "lng": "6.890257", "name": "Nederlands-Duitse Internet Exchange", "country": "Netherlands"}, {"lat": "53.2193835", "city": "Groningen", "lng": "6.5665018", "name": "Groningen Internet Exchange", "country": "Netherlands"}, {"lat": "53.223301", "city": "Leeuwarden", "lng": "5.7516999", "name": "Friese Internet Exchange", "country": "Netherlands"}, {"lat": "52.3702157", "city": "Amsterdam", "lng": "4.8951679", "name": "XchangePoint Amsterdam IPP", "country": "Netherlands"}, {"lat": "52.0899071", "city": "The Hague", "lng": "4.2806321", "name": "Den Haag Internet Exchange", "country": "Netherlands"}, {"lat": "51.9226584", "city": "Rotterdam", "lng": "4.4791885", "name": "Rotterdam Internet eXchange", "country": "Netherlands"}, {"lat": "59.9138688", "city": "Oslo", "lng": "10.7522454", "name": "Norwegian Internet Exchange", "country": "Norway"}, {"lat": "59.9138688", "city": "Oslo", "lng": "10.7522454", "name": "Free Internet eXchange Oslo", "country": "Norway"}, {"lat": "52.2296756", "city": "Warsaw", "lng": "21.0122287", "name": "Polish Internet Exchange", "country": "Poland"}, {"lat": "52.2296756", "city": "Warsaw", "lng": "21.0122287", "name": "Warsaw Internet Exchange", "country": "Poland"}, {"lat": "38.7252993", "city": "Lisbon", "lng": "-9.1500364", "name": "GIGAbit Portuguese Internet Exchange", "country": "Portugal"}, {"lat": "44.4325", "city": "Bucharest", "lng": "26.1038889", "name": "Romanian Network for Internet Exchange", "country": "Romania"}, {"lat": "44.4325", "city": "Bucharest", "lng": "26.1038889", "name": "InterLAN Internet Exchange", "country": "Romania"}, {"lat": "44.1733333", "city": "Constanța", "lng": "28.6383333", "name": "Tomis Internet eXchange", "country": "Romania"}, {"lat": "55.1745331", "city": "Chelyabinsk", "lng": "61.4266808", "name": "Chelyabinsk Peering Point Ural", "country": "Russia"}, {"lat": "59.9342802", "city": "Saint Petersburg", "lng": "30.3350986", "name": "DataIX", "country": "Russia"}, {"lat": "56.82593", "city": "Yekaterinburg", "lng": "60.605458", "name": "EKT-IX", "country": "Russia"}, {"lat": "59.9342802", "city": "Saint Petersburg", "lng": "30.3350986", "name": "PIRIX", "country": "Russia"}, {"lat": "55.6091711", "city": "Kazan", "lng": "49.2777402", "name": "KZN-IX", "country": "Russia"}, {"lat": "55.0166667", "city": "Novosibirsk", "lng": "82.9333333", "name": "NSK-IX", "country": "Russia"}, {"lat": "47.2166667", "city": "Rostov", "lng": "39.7", "name": "RND-IX", "country": "Russia"}, {"lat": "53.2333333", "city": "Samara", "lng": "50.1666667", "name": "Samara Internet Exchange", "country": "Russia"}, {"lat": "59.9342802", "city": "Saint Petersburg", "lng": "30.3350986", "name": "Saint Petersburg Internet Exchange", "country": "Russia"}, {"lat": "55.755826", "city": "Moscow", "lng": "37.6173", "name": "SVAO-IX", "country": "Russia"}, {"lat": "43.3991667", "city": "Vladivostok", "lng": "132.1513889", "name": "VLV-IX", "country": "Russia"}, {"lat": "44.8205556", "city": "Belgrade", "lng": "20.4622222", "name": "Serbian Open eXchange", "country": "Serbia"}, {"lat": "48.1458992", "city": "Bratislava", "lng": "17.1071342", "name": "Slovak Internet Exchange", "country": "Slovakia"}, {"lat": "46.0564509", "city": "Ljubljana", "lng": "14.5080702", "name": "Slovenian Internet Exchange", "country": "Slovenia"}, {"lat": "41.3850639", "city": "Barcelona", "lng": "2.1734035", "name": "Catalunya Neutral Internet Exchange", "country": "Spain"}, {"lat": "0", "city": "Terremark", "lng": "0", "name": "Nap de las Americas", "country": "Spain"}, {"lat": "40.4167754", "city": "Madrid", "lng": "-3.7037902", "name": "España Internet Exchange", "country": "Spain"}, {"lat": "42.870842", "city": "Santiago de Compostela", "lng": "-8.544697", "name": "Galicia Neutral Internet Exchange", "country": "Spain"}, {"lat": "43.3182663", "city": "San Sebastián", "lng": "-1.9806448", "name": "Punto Neutro Vasco", "country": "Spain"}, {"lat": "57.721035", "city": "Borås", "lng": "12.939819", "name": "BOR-IX", "country": "Sweden"}, {"lat": "55.604981", "city": "Malmö", "lng": "13.003822", "name": "IXOR", "country": "Sweden"}, {"lat": "59.32893", "city": "Stockholm", "lng": "18.06491", "name": "Netnod Internet Exchange i Sverige", "country": "Sweden"}, {"lat": "57.70887", "city": "Göteborg", "lng": "11.97456", "name": "GIX", "country": "Sweden"}, {"lat": "59.32893", "city": "Stockholm", "lng": "18.06491", "name": "SOL-IX", "country": "Sweden"}, {"lat": "59.32893", "city": "Stockholm", "lng": "18.06491", "name": "STHIX", "country": "Sweden"}, {"lat": "63.8258471", "city": "Umeå", "lng": "20.2630354", "name": "NorrNod", "country": "Sweden"}, {"lat": "46.1983922", "city": "Geneva", "lng": "6.1422961", "name": "CERN Internet Exchange Point", "country": "Switzerland"}, {"lat": "47.3686498", "city": "Zürich", "lng": "8.5391825", "name": "Swiss Internet Exchange", "country": "Switzerland"}, {"lat": "47.3686498", "city": "Zürich", "lng": "8.5391825", "name": "Telehouse Internet Exchange", "country": "Switzerland"}, {"lat": "0", "city": "Rhine Valley", "lng": "0", "name": "Rheintal Internet Exchange", "country": "Switzerland"}, {"lat": "50.4501", "city": "Kiev", "lng": "30.5234", "name": "Ukrainian Internet Exchange Network (UA-IX)", "country": "Ukraine"}, {"lat": "50.4501", "city": "Kiev", "lng": "30.5234", "name": "Digital Telecom Internet Exchange", "country": "Ukraine"}, {"lat": "48.002141", "city": "Donetsk", "lng": "37.696233", "name": "Donetsk Internet Exchange Point", "country": "Ukraine"}, {"lat": "49.9935", "city": "Kharkiv", "lng": "36.230383", "name": "Kharkiv Internet Exchange", "country": "Ukraine"}, {"lat": "46.635417", "city": "Kherson", "lng": "32.616867", "name": "Kherson Internet Exchange", "country": "Ukraine"}, {"lat": "46.484583", "city": "Odessa", "lng": "30.7326", "name": "Odessa Internet Exchange", "country": "Ukraine"}, {"lat": "47.8388", "city": "Zaporizhia", "lng": "35.139567", "name": "Zaporizhia Internet Exchange", "country": "Ukraine"}, {"lat": "53.801279", "city": "Leeds", "lng": "-1.548567", "name": "IXLeeds", "country": "United Kingdom"}, {"lat": "53.479324", "city": "Manchester", "lng": "-2.2484851", "name": "IX Manchester", "country": "United Kingdom"}, {"lat": "51.4894138", "city": "London", "lng": "-0.1230915", "name": "London Internet Exchange", "country": "United Kingdom"}, {"lat": "51.4894138", "city": "London", "lng": "-0.1230915", "name": "London Internet Providers Exchange", "country": "United Kingdom"}, {"lat": "51.4894138", "city": "London", "lng": "-0.1230915", "name": "London Network Access Point", "country": "United Kingdom"}, {"lat": "53.479324", "city": "Manchester", "lng": "-2.2484851", "name": "Manchester Commercial Internet Exchange", "country": "United Kingdom"}, {"lat": "53.479324", "city": "Manchester", "lng": "-2.2484851", "name": "Manchester Network Access Point", "country": "United Kingdom"}, {"lat": "51.4894138", "city": "London", "lng": "-0.1230915", "name": "Meridian Gate Internet Exchange", "country": "United Kingdom"}, {"lat": "51.4894138", "city": "London", "lng": "-0.1230915", "name": "Packet Exchange", "country": "United Kingdom"}, {"lat": "51.4894138", "city": "London", "lng": "-0.1230915", "name": "Redbus Internet Exchange", "country": "United Kingdom"}, {"lat": "51.4894138", "city": "London", "lng": "-0.1230915", "name": "xChangepoint", "country": "United Kingdom"}, {"lat": "33.8886289", "city": "Beirut", "lng": "35.4954794", "name": "Beirut Internet Exchange", "country": "Lebanon"}, {"lat": "30.0444196", "city": "Cairo", "lng": "31.2357116", "name": "Cairo Internet Exchange", "country": "Egypt"}, {"lat": "30.0444196", "city": "Cairo", "lng": "31.2357116", "name": "Cairo Regional Internet Exchange", "country": "Egypt"}, {"lat": "-33.873651", "city": "Sydney", "lng": "151.2068896", "name": "Equinix", "country": "Australia"}, {"lat": "-27.4989292", "city": "Brisbane", "lng": "152.9170055", "name": "PIPE Networks", "country": "Australia"}, {"lat": "-37.8211528", "city": "Melbourne", "lng": "144.9583094", "name": "AUSIX", "country": "Australia"}, {"lat": "-27.4989292", "city": "Brisbane", "lng": "152.9170055", "name": "Brisbane Internet Exchange", "country": "Australia"}, {"lat": "-28.8041813", "city": "Lismore", "lng": "153.2834738", "name": "Lismore Internet Exchange", "country": "Australia"}, {"lat": "-37.8211528", "city": "Melbourne", "lng": "144.9583094", "name": "MEL BONE", "country": "Australia"}, {"lat": "-37.8211528", "city": "Melbourne", "lng": "144.9583094", "name": "Melbourne NAPette", "country": "Australia"}, {"lat": "-32.9267275", "city": "Newcastle", "lng": "151.7844433", "name": "Newcastle Internet Exchange", "country": "Australia"}, {"lat": "-34.920603", "city": "Adelaide", "lng": "138.6062277", "name": "South Australian Internet Exchange", "country": "Australia"}, {"lat": "-33.873651", "city": "Sydney", "lng": "151.2068896", "name": "Sydney Internet Exchange", "country": "Australia"}, {"lat": "-37.4713077", "city": "Victoria", "lng": "144.7851531", "name": "Victorian Internet Exchange", "country": "Australia"}, {"lat": "-31.9510908", "city": "Perth", "lng": "115.8599254", "name": "Western Australian Internet Exchange", "country": "Australia"}, {"lat": "-34.40624", "city": "Wollongong", "lng": "150.8779", "name": "Wollongong Internet Exchange", "country": "Australia"}, {"lat": "45.3844939", "city": "Ottawa", "lng": "-75.6180443", "name": "Ottawa Internet Exchange", "country": "Canada"}, {"lat": "46.8032826", "city": "Quebec", "lng": "-71.242796", "name": "Quebec Internet Exchange", "country": "Canada"}, {"lat": "43.646667", "city": "Toronto", "lng": "-79.376121", "name": "Toronto Internet Exchange", "country": "Canada"}, {"lat": "45.5086699", "city": "Montreal", "lng": "-73.5539925", "name": "Montreal Internet Exchange", "country": "Canada"}, {"lat": "49.890967", "city": "Winnipeg", "lng": "-97.153381", "name": "Winnipeg Internet Exchange", "country": "Canada"}, {"lat": "51.0453246", "city": "Calgary", "lng": "-114.0581012", "name": "Calgary Internet Exchange", "country": "Canada"}, {"lat": "41.8795848", "city": "Chicago", "lng": "-87.6237123", "name": "AADS (IXP)", "country": "United States"}, {"lat": "34.0572825", "city": "Los Angeles", "lng": "-118.3759053", "name": "Any2", "country": "United States"}, {"lat": "33.4535269", "city": "Phoenix", "lng": "-112.0730317", "name": "ArizonaIX", "country": "United States"}, {"lat": "33.760757", "city": "Atlanta", "lng": "-84.399097", "name": "", "country": "United States"}, {"lat": "33.4535269", "city": "Phoenix", "lng": "-112.0730317", "name": "Phoenix", "country": "United States"}, {"lat": "40.729396", "city": "New York City", "lng": "-74.001306", "name": "Big APE", "country": "United States"}, {"lat": "41.4555873", "city": "Buffalo", "lng": "-90.7209746", "name": "BNIIX", "country": "United States"}, {"lat": "42.3488895", "city": "Boston", "lng": "-71.0740024", "name": "Boston Internet Exchange", "country": "United States"}, {"lat": "35.2850338", "city": "San Luis Obispo", "lng": "-120.6533351", "name": "C3IX", "country": "United States"}, {"lat": "41.8795848", "city": "Chicago", "lng": "-87.6237123", "name": "ChIX", "country": "United States"}, {"lat": "41.8795848", "city": "Chicago", "lng": "-87.6237123", "name": "GCIIX", "country": "United States"}, {"lat": "19.8967662", "city": "Hawaii", "lng": "-155.5827818", "name": "Hawaii Internet eXchange", "country": "United States"}, {"lat": "34.0572825", "city": "Los Angeles", "lng": "-118.3759053", "name": "LAIIX", "country": "United States"}, {"lat": "44.958203", "city": "Minneapolis", "lng": "-93.2740227", "name": "Midwest Internet Cooperative Exchange", "country": "United States"}, {"lat": "44.958203", "city": "Minneapolis", "lng": "-93.2740227", "name": "Northern Lights Local Exchange Point", "country": "United States"}, {"lat": "25.796549", "city": "Miami", "lng": "-80.275614", "name": "NAP of the Americas|NAP of the Americas (NOTA)", "country": "United States"}, {"lat": "38.4723897", "city": "Culpeper", "lng": "-77.9932308", "name": "Terremark", "country": "United States"}, {"lat": "45.5091312", "city": "Portland", "lng": "-122.6836598", "name": "NWAX", "country": "United States"}, {"lat": "40.7143528", "city": "New York", "lng": "-74.0059731", "name": "NYIIX", "country": "United States"}, {"lat": "40.087583", "city": "Philadelphia", "lng": "-74.965169", "name": "PHLIX", "country": "United States"}, {"lat": "37.7550372", "city": "San Francisco", "lng": "-122.4264417", "name": "SFMIX", "country": "United States"}, {"lat": "47.6499703", "city": "Seattle", "lng": "-122.3322085", "name": "Seattle Internet Exchange", "country": "United States"}, {"lat": "42.3261137", "city": "Medford", "lng": "-122.871976", "name": "SOAX", "country": "United States"}, {"lat": "0", "city": "PAIX", "lng": "0", "name": "Switch and Data", "country": "United States"}, {"lat": "33.760757", "city": "Atlanta (Georgia)", "lng": "-84.399097", "name": "Switch and Data's Peering And Internet eXchanges", "country": "United States"}, {"lat": "32.7871328", "city": "Dallas (Texas)", "lng": "-96.7959535", "name": "Switch and Data's Peering And Internet eXchanges", "country": "United States"}, {"lat": "25.796549", "city": "Miami (Florida)", "lng": "-80.275614", "name": "Switch and Data's Peering And Internet eXchanges", "country": "United States"}, {"lat": "40.729396", "city": "New York City (New York)", "lng": "-74.001306", "name": "Switch and Data's Peering And Internet eXchanges", "country": "United States"}, {"lat": "37.4414992", "city": "Palo Alto (California)", "lng": "-122.1583779", "name": "Switch and Data's Peering And Internet eXchanges", "country": "United States"}, {"lat": "37.3356322", "city": "San Jose (California)", "lng": "-121.8914346", "name": "Switch and Data's Peering And Internet eXchanges", "country": "United States"}, {"lat": "47.6499703", "city": "Seattle (Washington)", "lng": "-122.3322085", "name": "Switch and Data's Peering And Internet eXchanges", "country": "United States"}, {"lat": "38.9001381", "city": "Vienna (Virginia)", "lng": "-77.2668057", "name": "Switch and Data's Peering And Internet eXchanges", "country": "United States"}, {"lat": "18.4663338", "city": "San Juan", "lng": "-66.1057217", "name": "Puerto Rico Bridge Initiative (PRBI)", "country": "Puerto Rico"}, {"lat": "-19.862955", "city": "Belo Horizonte", "lng": "-43.9577552", "name": "PTT Metro", "country": "Brazil"}, {"lat": "-15.7801482", "city": "Brasília", "lng": "-47.9291698", "name": "PTT Metro", "country": "Brazil"}, {"lat": "-25.4399199", "city": "Curitiba", "lng": "-49.2382569", "name": "PTT Metro", "country": "Brazil"}, {"lat": "-27.5938645", "city": "Florianópolis", "lng": "-48.4929681", "name": "PTT Metro", "country": "Brazil"}, {"lat": "-3.779738", "city": "Fortaleza", "lng": "-38.5428287", "name": "PTT Metro", "country": "Brazil"}, {"lat": "-23.2924626", "city": "Londrina", "lng": "-51.1734299", "name": "PTT Metro", "country": "Brazil"}, {"lat": "-29.9943404", "city": "Porto Alegre", "lng": "-51.1711224", "name": "PTT Metro", "country": "Brazil"}, {"lat": "-22.9035393", "city": "Rio de Janeiro", "lng": "-43.2095869", "name": "PTT Metro", "country": "Brazil"}, {"lat": "-12.9972129", "city": "Salvador de Bahia", "lng": "-38.508839", "name": "PTT Metro", "country": "Brazil"}, {"lat": "-23.6827077", "city": "São Paulo", "lng": "-46.6499127", "name": "PTT Metro", "country": "Brazil"}, {"lat": "-23.6827077", "city": "São Paulo", "lng": "-46.6499127", "name": "NAP do Brasil", "country": "Brazil"}, {"lat": "-22.9035393", "city": "Rio de Janeiro", "lng": "-43.2095869", "name": "PTT Moebius", "country": "Brazil"}]
